{
	"1100" : [{
			"code" : 1109,
			"name" : "门头沟区",
			"lon" : 115.792587499713,
			"lat" : 39.9947084998974,
			"CapitalX" : 115.773792807,
			"CapitalY" : 40.0024054888
		}, {
			"code" : 1111,
			"name" : "房山区",
			"lon" : 115.839222500018,
			"lat" : 39.7151875001531,
			"CapitalX" : 115.98,
			"CapitalY" : 39.72
		}, {
			"code" : 1115,
			"name" : "大兴区",
			"lon" : 116.466507000248,
			"lat" : 39.6341289997036,
			"CapitalX" : 116.33324,
			"CapitalY" : 39.726154
		}, {
			"code" : 1108,
			"name" : "海淀区",
			"lon" : 116.214427000156,
			"lat" : 40.022864499697,
			"CapitalX" : 116.262654758,
			"CapitalY" : 40.012673703
		}, {
			"code" : 1107,
			"name" : "石景山区",
			"lon" : 116.181887000085,
			"lat" : 39.9332144996495,
			"CapitalX" : 116.161271851,
			"CapitalY" : 39.9328671419
		}, {
			"code" : 1101,
			"name" : "东城区",
			"lon" : 116.406811500201,
			"lat" : 39.9147954996627,
			"CapitalX" : 116.412591,
			"CapitalY" : 39.899759
		}, {
			"code" : 1102,
			"name" : "西城区",
			"lon" : 116.356096500153,
			"lat" : 39.9197870000701,
			"CapitalX" : 116.35471,
			"CapitalY" : 39.90327
		}, {
			"code" : 1105,
			"name" : "朝阳区",
			"lon" : 116.528508000044,
			"lat" : 40.0818529999661,
			"CapitalX" : 116.518701194,
			"CapitalY" : 39.946643661
		}, {
			"code" : 1106,
			"name" : "丰台区",
			"lon" : 116.262597000201,
			"lat" : 39.8297955000124,
			"CapitalX" : 116.165222132,
			"CapitalY" : 39.831834667
		}, {
			"code" : 1114,
			"name" : "昌平区",
			"lon" : 116.171145000242,
			"lat" : 40.2092970000066,
			"CapitalX" : 116.22368,
			"CapitalY" : 40.222099
		}, {
			"code" : "延庆县",
			"name" : "延庆县",
			"lon" : 116.148861499659,
			"lat" : 40.5274194996602,
			"CapitalX" : 115.96835,
			"CapitalY" : 40.4596940003
		}, {
			"code" : 1116,
			"name" : "怀柔区",
			"lon" : 116.581148499853,
			"lat" : 40.6436115001707,
			"CapitalX" : 116.62561,
			"CapitalY" : 40.3120840002
		}, {
			"code" : 1112,
			"name" : "通州区",
			"lon" : 116.727383499949,
			"lat" : 39.8116210000591,
			"CapitalX" : 116.65881,
			"CapitalY" : 39.905922
		}, {
			"code" : 1113,
			"name" : "顺义区",
			"lon" : 116.787544499879,
			"lat" : 40.0786634999206,
			"CapitalX" : 116.64145,
			"CapitalY" : 40.127551999
		}, {
			"code" : 1117,
			"name" : "平谷区",
			"lon" : 117.163814999713,
			"lat" : 40.2036184998439,
			"CapitalX" : 117.11284,
			"CapitalY" : 40.136341
		}, {
			"code" : "密云县",
			"name" : "密云县",
			"lon" : 117.086050500081,
			"lat" : 40.5106585001397,
			"CapitalX" : 116.84046,
			"CapitalY" : 40.371483
		}
	],
	"1200" : [{
			"code" : "蓟县",
			"name" : "蓟县",
			"lon" : 117.43095,
			"lat" : 40.002514,
			"CapitalX" : 117.43095,
			"CapitalY" : 40.002514
		}, {
			"code" : "宝坻县",
			"name" : "宝坻县",
			"lon" : 117.40381,
			"lat" : 39.610477,
			"CapitalX" : 117.40381,
			"CapitalY" : 39.610477
		}, {
			"code" : "武清县",
			"name" : "武清县",
			"lon" : 117.02589,
			"lat" : 39.453709,
			"CapitalX" : 117.02589,
			"CapitalY" : 39.453709
		}, {
			"code" : "宁河县",
			"name" : "宁河县",
			"lon" : 117.67991,
			"lat" : 39.377396,
			"CapitalX" : 117.67991,
			"CapitalY" : 39.377396
		}, {
			"code" : 1206,
			"name" : "红桥区",
			"lon" : 117.17161,
			"lat" : 39.256981,
			"CapitalX" : 117.17161,
			"CapitalY" : 39.256981
		}, {
			"code" : 1204,
			"name" : "南开区",
			"lon" : 117.86596,
			"lat" : 39.24905,
			"CapitalX" : 117.86596,
			"CapitalY" : 39.24905
		}, {
			"code" : 1205,
			"name" : "河北区",
			"lon" : 117.40572,
			"lat" : 39.1343,
			"CapitalX" : 117.40572,
			"CapitalY" : 39.1343
		}, {
			"code" : 1201,
			"name" : "和平区",
			"lon" : 117.62198,
			"lat" : 39.007866,
			"CapitalX" : 117.62198,
			"CapitalY" : 39.007866
		}, {
			"code" : 1202,
			"name" : "河东区",
			"lon" : 117.19432,
			"lat" : 39.135654,
			"CapitalX" : 117.19432,
			"CapitalY" : 39.135654
		}, {
			"code" : 1203,
			"name" : "河西区",
			"lon" : 117.11652,
			"lat" : 39.033619,
			"CapitalX" : 117.11652,
			"CapitalY" : 39.033619
		}, {
			"code" : 1213,
			"name" : "北辰区",
			"lon" : 117.37549,
			"lat" : 38.968437,
			"CapitalX" : 117.37549,
			"CapitalY" : 38.968437
		}, {
			"code" : "静海县",
			"name" : "静海县",
			"lon" : 116.96257,
			"lat" : 38.854851,
			"CapitalX" : 116.96257,
			"CapitalY" : 38.854851
		}, {
			"code" : 1210,
			"name" : "东丽区",
			"lon" : 117.36349,
			"lat" : 38.731911,
			"CapitalX" : 117.36349,
			"CapitalY" : 38.731911
		}
	],
	"1300" : [{
			"code" : 1304,
			"name" : "邯郸市",
			"lon" : 114.4536861185,
			"lat" : 36.530313304,
			"CapitalX" : 114.47259407,
			"CapitalY" : 36.593692925
		}, {
			"code" : 1305,
			"name" : "邢台市",
			"lon" : 114.783614012,
			"lat" : 37.2516047005001,
			"CapitalX" : 114.494818132,
			"CapitalY" : 37.066587341
		}, {
			"code" : 1301,
			"name" : "石家庄市",
			"lon" : 114.48488994,
			"lat" : 38.131654432,
			"CapitalX" : 114.489362176,
			"CapitalY" : 38.042987031
		}, {
			"code" : 1306,
			"name" : "保定市",
			"lon" : 115.024554699,
			"lat" : 39.0914407390001,
			"CapitalX" : 115.502691552,
			"CapitalY" : 38.855973441
		}, {
			"code" : 1311,
			"name" : "衡水市",
			"lon" : 115.845720437,
			"lat" : 37.7158792405,
			"CapitalX" : 115.706328188,
			"CapitalY" : 37.726403805
		}, {
			"code" : 1309,
			"name" : "沧州市",
			"lon" : 116.74205114,
			"lat" : 38.2034999355,
			"CapitalX" : 116.8626065,
			"CapitalY" : 38.309252978
		}, {
			"code" : 1310,
			"name" : "廊坊市",
			"lon" : 116.50321277,
			"lat" : 39.040776417,
			"CapitalX" : 116.692762403,
			"CapitalY" : 39.519257363
		}, {
			"code" : "香河县",
			"name" : "香河县",
			"lon" : 116.9791237755,
			"lat" : 39.8340986045,
			"CapitalX" : 116.9791237755,
			"CapitalY" : 39.8340986045
		}, {
			"code" : 1307,
			"name" : "张家口市",
			"lon" : 115.1400412785,
			"lat" : 40.8402398970001,
			"CapitalX" : 114.886540014,
			"CapitalY" : 40.791582085
		}, {
			"code" : 1302,
			"name" : "唐山市",
			"lon" : 118.3578985125,
			"lat" : 39.7188844955,
			"CapitalX" : 118.193067347,
			"CapitalY" : 39.620913407
		}, {
			"code" : 1303,
			"name" : "秦皇岛市",
			"lon" : 119.176530832,
			"lat" : 39.9908316565,
			"CapitalX" : 119.596371305,
			"CapitalY" : 39.926114656
		}, {
			"code" : 1308,
			"name" : "承德市",
			"lon" : 117.542841943,
			"lat" : 41.3665398150001,
			"CapitalX" : 117.920542994,
			"CapitalY" : 40.96610758
		}
	],
	"1400" : [{
			"code" : 1402,
			"name" : "大同市",
			"lon" : 113.5388439285,
			"lat" : 39.8992395230001,
			"CapitalX" : 113.296935885,
			"CapitalY" : 40.09315373
		}, {
			"code" : 1406,
			"name" : "朔州市",
			"lon" : 112.6956265225,
			"lat" : 39.68205754,
			"CapitalX" : 112.422033462,
			"CapitalY" : 39.308366065
		}, {
			"code" : 1409,
			"name" : "忻州市",
			"lon" : 112.4249183525,
			"lat" : 38.8901693050001,
			"CapitalX" : 112.73171616,
			"CapitalY" : 38.398836644
		}, {
			"code" : 1408,
			"name" : "运城市",
			"lon" : 111.1387741015,
			"lat" : 35.190276143,
			"CapitalX" : 110.993894437,
			"CapitalY" : 35.01458712
		}, {
			"code" : 1405,
			"name" : "晋城市",
			"lon" : 112.750071499,
			"lat" : 35.6322474160001,
			"CapitalX" : 112.839660073,
			"CapitalY" : 35.504514088
		}, {
			"code" : 1404,
			"name" : "长治市",
			"lon" : 112.834935466,
			"lat" : 36.4589268095,
			"CapitalX" : 113.104001962,
			"CapitalY" : 36.18375013
		}, {
			"code" : 1410,
			"name" : "临汾市",
			"lon" : 111.4578379665,
			"lat" : 36.2283076195,
			"CapitalX" : 111.515895479,
			"CapitalY" : 36.078253786
		}, {
			"code" : 1401,
			"name" : "太原市",
			"lon" : 112.298619276,
			"lat" : 37.9172815575,
			"CapitalX" : 112.565337573,
			"CapitalY" : 37.874013448
		}, {
			"code" : "离石县",
			"name" : "离石县",
			"lon" : 111.3186728185,
			"lat" : 37.7129791230001,
			"CapitalX" : 111.3186728185,
			"CapitalY" : 37.7129791230001
		}, {
			"code" : "榆次市",
			"name" : "榆次市",
			"lon" : 112.743565419,
			"lat" : 37.365550078,
			"CapitalX" : 112.743565419,
			"CapitalY" : 37.365550078
		}, {
			"code" : 1403,
			"name" : "阳泉市",
			"lon" : 113.44835353,
			"lat" : 38.0909924695001,
			"CapitalX" : 113.573387125,
			"CapitalY" : 37.86134364
		}
	],
	"1500" : [{
			"code" : "霍林郭勒市",
			"name" : "霍林郭勒市",
			"lon" : 119.500986423,
			"lat" : 45.5053427420001,
			"CapitalX" : 119.500986423,
			"CapitalY" : 45.5053427420001
		}, {
			"code" : "阿拉善左旗",
			"name" : "阿拉善左旗",
			"lon" : 102.005144528,
			"lat" : 40.1094751895,
			"CapitalX" : 105.665874987,
			"CapitalY" : 38.842156337
		}, {
			"code" : "烏海市",
			"name" : "烏海市",
			"lon" : 106.8421238525,
			"lat" : 39.5464677680001,
			"CapitalX" : 106.8421238525,
			"CapitalY" : 39.5464677680001
		}, {
			"code" : "东胜市",
			"name" : "东胜市",
			"lon" : 108.974433618,
			"lat" : 39.2406579055,
			"CapitalX" : 110.001073377,
			"CapitalY" : 39.816599494
		}, {
			"code" : "临河市",
			"name" : "临河市",
			"lon" : 107.5373990985,
			"lat" : 41.3019451005001,
			"CapitalX" : 107.397428169,
			"CapitalY" : 40.761522752
		}, {
			"code" : 1502,
			"name" : "包头市",
			"lon" : 110.338968034,
			"lat" : 41.4805176440001,
			"CapitalX" : 109.74920109,
			"CapitalY" : 40.660761834
		}, {
			"code" : 1501,
			"name" : "呼和浩特市",
			"lon" : 111.3751352045,
			"lat" : 40.4996147700001,
			"CapitalX" : 111.664661553,
			"CapitalY" : 40.815825102
		}, {
			"code" : "集宁市",
			"name" : "集宁市",
			"lon" : 112.5782680945,
			"lat" : 41.7579773845001,
			"CapitalX" : 113.096797387,
			"CapitalY" : 41.028959174
		}, {
			"code" : 1504,
			"name" : "赤峰市",
			"lon" : 118.6208627045,
			"lat" : 43.2548695655,
			"CapitalX" : 118.95318839,
			"CapitalY" : 42.269330345
		}, {
			"code" : 1505,
			"name" : "通辽市",
			"lon" : 121.4500889745,
			"lat" : 43.909238669,
			"CapitalX" : 122.261375383,
			"CapitalY" : 43.611209897
		}, {
			"code" : "锡林浩特市",
			"name" : "锡林浩特市",
			"lon" : 115.4811110525,
			"lat" : 44.160958584,
			"CapitalX" : 116.069878414,
			"CapitalY" : 43.945651604
		}, {
			"code" : "乌兰浩特市",
			"name" : "乌兰浩特市",
			"lon" : 121.509987448,
			"lat" : 45.919122113,
			"CapitalX" : 122.070036452,
			"CapitalY" : 46.063610551
		}, {
			"code" : 2302,
			"name" : "齐齐哈尔市",
			"lon" : 124.5097193975,
			"lat" : 47.5525958295001,
			"CapitalX" : 123.964808108,
			"CapitalY" : 47.345425157
		}
	],
	"2100" : [{
			"code" : "桓仁满族自治县",
			"name" : "桓仁满族自治县",
			"lon" : 125.2057941175,
			"lat" : 41.2402413175001,
			"CapitalX" : 125.2057941175,
			"CapitalY" : 41.2402413175001
		}, {
			"code" : "清河门区",
			"name" : "清河门区",
			"lon" : 121.4184945225,
			"lat" : 41.7110241060001,
			"CapitalX" : 121.4184945225,
			"CapitalY" : 41.7110241060001
		}, {
			"code" : 2114,
			"name" : "葫芦岛市",
			"lon" : 120.127066392,
			"lat" : 40.5631466590001,
			"CapitalX" : 120.849716943,
			"CapitalY" : 40.756290573
		}, {
			"code" : 2113,
			"name" : "朝阳市",
			"lon" : 120.0332648065,
			"lat" : 41.4721458065,
			"CapitalX" : 120.451554999,
			"CapitalY" : 41.58039506
		}, {
			"code" : 2107,
			"name" : "锦州市",
			"lon" : 121.623083416,
			"lat" : 41.459607961,
			"CapitalX" : 121.136099495,
			"CapitalY" : 41.113154631
		}, {
			"code" : 2108,
			"name" : "营口市",
			"lon" : 122.46033953,
			"lat" : 40.4211815090001,
			"CapitalX" : 122.22847573,
			"CapitalY" : 40.669013864
		}, {
			"code" : 2106,
			"name" : "丹东市",
			"lon" : 124.508638989,
			"lat" : 40.4639278780001,
			"CapitalX" : 124.384550121,
			"CapitalY" : 40.135746835
		}, {
			"code" : 2110,
			"name" : "辽阳市",
			"lon" : 123.1017667895,
			"lat" : 41.1525909305001,
			"CapitalX" : 123.168830236,
			"CapitalY" : 41.26613599
		}, {
			"code" : 2111,
			"name" : "盘锦市",
			"lon" : 121.9968941505,
			"lat" : 41.0560002425,
			"CapitalX" : 122.071416761,
			"CapitalY" : 41.121143312
		}, {
			"code" : 2109,
			"name" : "阜新市",
			"lon" : 121.979289437,
			"lat" : 42.2779791405001,
			"CapitalX" : 121.648935612,
			"CapitalY" : 42.00960055
		}, {
			"code" : 2103,
			"name" : "鞍山市",
			"lon" : 122.9383573775,
			"lat" : 40.7797682755001,
			"CapitalX" : 123.021594963,
			"CapitalY" : 41.185279061
		}, {
			"code" : 2105,
			"name" : "本溪市",
			"lon" : 124.1208343615,
			"lat" : 41.167066867,
			"CapitalX" : 123.764527618,
			"CapitalY" : 41.290394148
		}, {
			"code" : 2101,
			"name" : "沈阳市",
			"lon" : 123.0835063705,
			"lat" : 42.1165037200001,
			"CapitalX" : 123.420744387,
			"CapitalY" : 41.788547085
		}, {
			"code" : 2112,
			"name" : "铁岭市",
			"lon" : 124.235039594,
			"lat" : 42.7269543515,
			"CapitalX" : 123.848733726,
			"CapitalY" : 42.295815366
		}, {
			"code" : "扶顺市",
			"name" : "扶顺市",
			"lon" : 124.556648739,
			"lat" : 41.829818016,
			"CapitalX" : 124.556648739,
			"CapitalY" : 41.829818016
		}, {
			"code" : 2102,
			"name" : "大连市",
			"lon" : 122.2551918115,
			"lat" : 39.4443751830001,
			"CapitalX" : 121.591097361,
			"CapitalY" : 38.912423918
		}
	],
	"2200" : [{
			"code" : 2208,
			"name" : "白城市",
			"lon" : 122.9814579015,
			"lat" : 45.2551176575001,
			"CapitalX" : 122.842083291,
			"CapitalY" : 45.612684521
		}, {
			"code" : "扶余市",
			"name" : "扶余市",
			"lon" : 124.6136924935,
			"lat" : 44.7581304260001,
			"CapitalX" : 124.6136924935,
			"CapitalY" : 44.7581304260001
		}, {
			"code" : 2203,
			"name" : "四平市",
			"lon" : 124.5195816715,
			"lat" : 43.5216563935001,
			"CapitalX" : 124.376321665,
			"CapitalY" : 43.167395641
		}, {
			"code" : 2205,
			"name" : "通化市",
			"lon" : 125.97008636,
			"lat" : 41.91797618,
			"CapitalX" : 125.922064851,
			"CapitalY" : 41.723805905
		}, {
			"code" : 2204,
			"name" : "辽源市",
			"lon" : 125.29589311,
			"lat" : 42.758623259,
			"CapitalX" : 125.137859988,
			"CapitalY" : 42.910833247
		}, {
			"code" : "吉林省市",
			"name" : "吉林省市",
			"lon" : 126.7314243965,
			"lat" : 43.6055215255001,
			"CapitalX" : 126.7314243965,
			"CapitalY" : 43.6055215255001
		}, {
			"code" : 2201,
			"name" : "长春市",
			"lon" : 125.782246817,
			"lat" : 44.246554263,
			"CapitalX" : 125.310280067,
			"CapitalY" : 43.88475951
		}, {
			"code" : "浑江市",
			"name" : "浑江市",
			"lon" : 127.1717533735,
			"lat" : 42.0934953570001,
			"CapitalX" : 127.1717533735,
			"CapitalY" : 42.0934953570001
		}
	],
	"2300" : [{
			"code" : "塔河县",
			"name" : "塔河县",
			"lon" : 124.158135619,
			"lat" : 52.1848952435001,
			"CapitalX" : 124.158135619,
			"CapitalY" : 52.1848952435001
		}, {
			"code" : 2311,
			"name" : "黑河市",
			"lon" : 127.049604422,
			"lat" : 49.2512301455001,
			"CapitalX" : 127.484581378,
			"CapitalY" : 50.242349928
		}, {
			"code" : 2306,
			"name" : "大庆市",
			"lon" : 124.7417052465,
			"lat" : 46.3988353825001,
			"CapitalX" : 125.02612754,
			"CapitalY" : 46.592568095
		}, {
			"code" : 2312,
			"name" : "绥化市",
			"lon" : 126.664139183,
			"lat" : 46.7702888570001,
			"CapitalX" : 126.982788212,
			"CapitalY" : 46.637953764
		}, {
			"code" : 2301,
			"name" : "哈尔滨市",
			"lon" : 127.9293832435,
			"lat" : 45.36342319,
			"CapitalX" : 126.646501295,
			"CapitalY" : 45.742702596
		}, {
			"code" : 2304,
			"name" : "鹤岗市",
			"lon" : 131.050486753,
			"lat" : 47.6655569920001,
			"CapitalX" : 130.293501901,
			"CapitalY" : 47.346064311
		}, {
			"code" : 2307,
			"name" : "伊春市",
			"lon" : 129.1424679225,
			"lat" : 47.9387092055001,
			"CapitalX" : 128.904998575,
			"CapitalY" : 47.72291087
		}, {
			"code" : 2309,
			"name" : "七台河市",
			"lon" : 130.9918242165,
			"lat" : 45.9454061585001,
			"CapitalX" : 130.878936258,
			"CapitalY" : 45.807387951
		}, {
			"code" : 2303,
			"name" : "鸡西市",
			"lon" : 132.116654096,
			"lat" : 45.723223156,
			"CapitalX" : 130.951847977,
			"CapitalY" : 45.296316404
		}, {
			"code" : 2305,
			"name" : "双鸭山市",
			"lon" : 132.452508083,
			"lat" : 46.6590088120001,
			"CapitalX" : 131.157071713,
			"CapitalY" : 46.637776247
		}, {
			"code" : 2308,
			"name" : "佳木斯市",
			"lon" : 132.226356294,
			"lat" : 47.1760108300001,
			"CapitalX" : 130.365762411,
			"CapitalY" : 46.809552233
		}, {
			"code" : "海拉尔市",
			"name" : "海拉尔市",
			"lon" : 120.736269883,
			"lat" : 50.1822625155001,
			"CapitalX" : 119.731982546,
			"CapitalY" : 49.207221621
		}, {
			"code" : 2310,
			"name" : "牡丹江市",
			"lon" : 129.3440593985,
			"lat" : 43.2455995190001,
			"CapitalX" : 129.596895818,
			"CapitalY" : 44.580954918
		}
	],
	"3100" : [{
			"code" : "崇明县",
			"name" : "崇明县",
			"lon" : 121.52319,
			"lat" : 31.650703,
			"CapitalX" : 121.52319,
			"CapitalY" : 31.650703
		}, {
			"code" : 3101,
			"name" : "黄浦区",
			"lon" : 121.4138,
			"lat" : 31.37892,
			"CapitalX" : 121.4138,
			"CapitalY" : 31.37892
		}, {
			"code" : 3114,
			"name" : "嘉定区",
			"lon" : 121.25132,
			"lat" : 31.353119,
			"CapitalX" : 121.25132,
			"CapitalY" : 31.353119
		}, {
			"code" : 3104,
			"name" : "徐汇区",
			"lon" : 121.58807,
			"lat" : 31.444252,
			"CapitalX" : 121.58807,
			"CapitalY" : 31.444252
		}, {
			"code" : 3105,
			"name" : "长宁区",
			"lon" : 121.70641,
			"lat" : 31.388613,
			"CapitalX" : 121.70641,
			"CapitalY" : 31.388613
		}, {
			"code" : 3106,
			"name" : "静安区",
			"lon" : 121.59557,
			"lat" : 31.431089,
			"CapitalX" : 121.59557,
			"CapitalY" : 31.431089
		}, {
			"code" : "闸北区",
			"name" : "闸北区",
			"lon" : 121.63612,
			"lat" : 31.230965,
			"CapitalX" : 121.63612,
			"CapitalY" : 31.230965
		}, {
			"code" : 3109,
			"name" : "虹口区",
			"lon" : 121.83819,
			"lat" : 31.343924,
			"CapitalX" : 121.83819,
			"CapitalY" : 31.343924
		}, {
			"code" : 3107,
			"name" : "普陀区",
			"lon" : 121.46911,
			"lat" : 31.239662,
			"CapitalX" : 121.46911,
			"CapitalY" : 31.239662
		}, {
			"code" : 3118,
			"name" : "青浦区",
			"lon" : 121.08324,
			"lat" : 31.126991,
			"CapitalX" : 121.08324,
			"CapitalY" : 31.126991
		}, {
			"code" : 3112,
			"name" : "闵行区",
			"lon" : 121.41487,
			"lat" : 31.103432,
			"CapitalX" : 121.41487,
			"CapitalY" : 31.103432
		}, {
			"code" : 3115,
			"name" : "浦东新区",
			"lon" : 121.736,
			"lat" : 31.023624,
			"CapitalX" : 121.736,
			"CapitalY" : 31.023624
		}, {
			"code" : 3117,
			"name" : "松江区",
			"lon" : 121.21287,
			"lat" : 31.011995,
			"CapitalX" : 121.21287,
			"CapitalY" : 31.011995
		}, {
			"code" : 3120,
			"name" : "奉贤区",
			"lon" : 121.54979,
			"lat" : 30.915985,
			"CapitalX" : 121.54979,
			"CapitalY" : 30.915985
		}, {
			"code" : 3116,
			"name" : "金山区",
			"lon" : 121.23129,
			"lat" : 30.833374,
			"CapitalX" : 121.23129,
			"CapitalY" : 30.833374
		}
	],
	"3200" : [{
			"code" : "兴化市",
			"name" : "兴化市",
			"lon" : 119.9533066425,
			"lat" : 32.940077284,
			"CapitalX" : 119.9533066425,
			"CapitalY" : 32.940077284
		}, {
			"code" : 3205,
			"name" : "苏州市",
			"lon" : 120.591427395,
			"lat" : 31.3838088430001,
			"CapitalX" : 120.619303283,
			"CapitalY" : 31.312757988
		}, {
			"code" : "宜兴市",
			"name" : "宜兴市",
			"lon" : 119.814769377,
			"lat" : 31.3624328960001,
			"CapitalX" : 119.815042794,
			"CapitalY" : 31.363691536
		}, {
			"code" : 3202,
			"name" : "无锡市",
			"lon" : 120.301626098,
			"lat" : 31.6282387795,
			"CapitalX" : 120.29834686,
			"CapitalY" : 31.574670525
		}, {
			"code" : 3204,
			"name" : "常州市",
			"lon" : 119.6482670595,
			"lat" : 31.6094974740001,
			"CapitalX" : 119.952969368,
			"CapitalY" : 31.782847786
		}, {
			"code" : 3201,
			"name" : "南京市",
			"lon" : 118.7795953445,
			"lat" : 31.9112575460001,
			"CapitalX" : 118.769630203,
			"CapitalY" : 32.052639961
		}, {
			"code" : 3211,
			"name" : "镇江市",
			"lon" : 119.4554919785,
			"lat" : 31.979472663,
			"CapitalX" : 119.444949104,
			"CapitalY" : 32.206567537
		}, {
			"code" : 3212,
			"name" : "泰州市",
			"lon" : 120.1525394735,
			"lat" : 32.3200410615,
			"CapitalX" : 119.911913517,
			"CapitalY" : 32.495954641
		}, {
			"code" : "市辖区(南通市)",
			"name" : "市辖区(南通市)",
			"lon" : 121.030901647,
			"lat" : 32.1846011630001,
			"CapitalX" : 121.030901647,
			"CapitalY" : 32.1846011630001
		}, {
			"code" : 3209,
			"name" : "盐城市",
			"lon" : 120.181153015,
			"lat" : 33.5402582420001,
			"CapitalX" : 120.134406201,
			"CapitalY" : 33.385266621
		}, {
			"code" : "淮阴市",
			"name" : "淮阴市",
			"lon" : 118.919367493,
			"lat" : 33.3921260875001,
			"CapitalX" : 119.017347966,
			"CapitalY" : 33.588471985
		}, {
			"code" : 3213,
			"name" : "宿迁市",
			"lon" : 118.5350981705,
			"lat" : 33.6663562820001,
			"CapitalX" : 118.29770136,
			"CapitalY" : 33.958431473
		}, {
			"code" : 3203,
			"name" : "徐州市",
			"lon" : 117.4835810975,
			"lat" : 34.3085991490001,
			"CapitalX" : 117.188293437,
			"CapitalY" : 34.269777333
		}, {
			"code" : 3207,
			"name" : "连云港市",
			"lon" : 119.0726971775,
			"lat" : 34.5437806925001,
			"CapitalX" : 119.171630064,
			"CapitalY" : 34.604793714
		}, {
			"code" : 3210,
			"name" : "扬州市",
			"lon" : 119.4484697775,
			"lat" : 32.8120279095,
			"CapitalX" : 119.437850255,
			"CapitalY" : 32.391352415
		}
	],
	"3300" : [{
			"code" : "嵊泗县",
			"name" : "嵊泗县",
			"lon" : 122.465099783,
			"lat" : 30.7131733505001,
			"CapitalX" : 122.465099783,
			"CapitalY" : 30.7131733505001
		}, {
			"code" : "岱山县",
			"name" : "岱山县",
			"lon" : 122.1456055805,
			"lat" : 30.273434945,
			"CapitalX" : 122.1456055805,
			"CapitalY" : 30.273434945
		}, {
			"code" : "玉环县",
			"name" : "玉环县",
			"lon" : 121.2657502765,
			"lat" : 28.1534311575001,
			"CapitalX" : 121.2657502765,
			"CapitalY" : 28.1534311575001
		}, {
			"code" : 3309,
			"name" : "舟山市",
			"lon" : 122.122000816,
			"lat" : 30.0536105495,
			"CapitalX" : 122.10181178,
			"CapitalY" : 30.015166321
		}, {
			"code" : 3303,
			"name" : "温州市",
			"lon" : 120.4105861285,
			"lat" : 27.867579861,
			"CapitalX" : 120.653882234,
			"CapitalY" : 28.018252753
		}, {
			"code" : 3310,
			"name" : "台州市",
			"lon" : 120.979896587,
			"lat" : 28.77544563,
			"CapitalX" : 121.447818471,
			"CapitalY" : 28.67245311
		}, {
			"code" : 3311,
			"name" : "丽水市",
			"lon" : 119.5340568625,
			"lat" : 28.166833415,
			"CapitalX" : 119.913656261,
			"CapitalY" : 28.448708578
		}, {
			"code" : 3308,
			"name" : "衢州市",
			"lon" : 118.6677309595,
			"lat" : 28.8658485300001,
			"CapitalX" : 118.86827276,
			"CapitalY" : 28.956815863
		}, {
			"code" : 3307,
			"name" : "金华市",
			"lon" : 120.000925556,
			"lat" : 29.0934004645,
			"CapitalX" : 119.650563625,
			"CapitalY" : 29.104707072
		}, {
			"code" : 3306,
			"name" : "绍兴市",
			"lon" : 120.5492338565,
			"lat" : 29.6938099450001,
			"CapitalX" : 120.578933113,
			"CapitalY" : 30.004529056
		}, {
			"code" : 3302,
			"name" : "宁波市",
			"lon" : 121.5210305595,
			"lat" : 29.6999932875001,
			"CapitalX" : 121.543356646,
			"CapitalY" : 29.866321444
		}, {
			"code" : 3301,
			"name" : "杭州市",
			"lon" : 119.468097432,
			"lat" : 29.8689482680001,
			"CapitalX" : 120.169284589,
			"CapitalY" : 30.294148717
		}, {
			"code" : 3305,
			"name" : "湖州市",
			"lon" : 119.831756344,
			"lat" : 30.7945360720001,
			"CapitalX" : 120.099976704,
			"CapitalY" : 30.865003012
		}, {
			"code" : 3304,
			"name" : "嘉兴市",
			"lon" : 120.800598158,
			"lat" : 30.675393662,
			"CapitalX" : 120.753882856,
			"CapitalY" : 30.76750206
		}
	],
	"3400" : [{
			"code" : "天长市",
			"name" : "天长市",
			"lon" : 118.8948744135,
			"lat" : 32.7021689345001,
			"CapitalX" : 118.8948744135,
			"CapitalY" : 32.7021689345001
		}, {
			"code" : 3410,
			"name" : "黄山市",
			"lon" : 118.024885416,
			"lat" : 29.9696359675001,
			"CapitalX" : 118.309712968,
			"CapitalY" : 29.715696513
		}, {
			"code" : "贵池市",
			"name" : "贵池市",
			"lon" : 117.380436624,
			"lat" : 30.2081029655,
			"CapitalX" : 117.48242714,
			"CapitalY" : 30.654707221
		}, {
			"code" : 3407,
			"name" : "铜陵市",
			"lon" : 117.9271929855,
			"lat" : 30.9264732345,
			"CapitalX" : 117.814117531,
			"CapitalY" : 30.923454807
		}, {
			"code" : 3408,
			"name" : "安庆市",
			"lon" : 116.7342073485,
			"lat" : 30.52305172,
			"CapitalX" : 117.03526452,
			"CapitalY" : 30.512339467
		}, {
			"code" : 3404,
			"name" : "淮南市",
			"lon" : 116.7667791905,
			"lat" : 32.799807692,
			"CapitalX" : 117.022337462,
			"CapitalY" : 32.618840484
		}, {
			"code" : 3403,
			"name" : "蚌埠市",
			"lon" : 117.389447147,
			"lat" : 33.1068199295001,
			"CapitalX" : 117.363238818,
			"CapitalY" : 32.941342381
		}, {
			"code" : 3406,
			"name" : "淮北市",
			"lon" : 116.6819788895,
			"lat" : 33.6959370815001,
			"CapitalX" : 116.790170403,
			"CapitalY" : 33.971386419
		}, {
			"code" : 3413,
			"name" : "宿州市",
			"lon" : 117.1409661555,
			"lat" : 33.943445064,
			"CapitalX" : 116.972003065,
			"CapitalY" : 33.642495833
		}, {
			"code" : 3416,
			"name" : "亳州市",
			"lon" : 116.1626194275,
			"lat" : 33.4677994230001,
			"CapitalX" : 116.1626194275,
			"CapitalY" : 33.4677994230001
		}, {
			"code" : "宣州市",
			"name" : "宣州市",
			"lon" : 118.7838873045,
			"lat" : 30.6281622830001,
			"CapitalX" : 118.743132021,
			"CapitalY" : 30.946988976
		}, {
			"code" : 3405,
			"name" : "马鞍山市",
			"lon" : 118.59314549,
			"lat" : 31.5359274600001,
			"CapitalX" : 118.483300397,
			"CapitalY" : 31.725327772
		}, {
			"code" : 3402,
			"name" : "芜湖市",
			"lon" : 118.3323050775,
			"lat" : 31.0641045860001,
			"CapitalX" : 118.363244626,
			"CapitalY" : 31.335009065
		}, {
			"code" : 3414,
			"name" : "巢湖市",
			"lon" : 117.754058551,
			"lat" : 31.4884595920001,
			"CapitalX" : 117.865463251,
			"CapitalY" : 31.601805521
		}, {
			"code" : 3401,
			"name" : "合肥市",
			"lon" : 117.287674162,
			"lat" : 32.0692506,
			"CapitalX" : 117.277059338,
			"CapitalY" : 31.864535278
		}, {
			"code" : 3415,
			"name" : "六安市",
			"lon" : 116.291716567,
			"lat" : 31.8209065495001,
			"CapitalX" : 116.494697752,
			"CapitalY" : 31.754674976
		}, {
			"code" : 3411,
			"name" : "滁州市",
			"lon" : 117.9042186705,
			"lat" : 32.5199384145,
			"CapitalX" : 118.30478972,
			"CapitalY" : 32.317080257
		}, {
			"code" : 3412,
			"name" : "阜阳市",
			"lon" : 115.7141965835,
			"lat" : 32.9806981340001,
			"CapitalX" : 115.809576489,
			"CapitalY" : 32.903170673
		}
	],
	"3500" : [{
			"code" : "平潭县",
			"name" : "平潭县",
			"lon" : 119.78308858,
			"lat" : 25.5092144865,
			"CapitalX" : 119.78308858,
			"CapitalY" : 25.5092144865
		}, {
			"code" : "金门县",
			"name" : "金门县",
			"lon" : 118.391895296,
			"lat" : 24.4399147085001,
			"CapitalX" : 118.391895296,
			"CapitalY" : 24.4399147085001
		}, {
			"code" : "诏安县",
			"name" : "诏安县",
			"lon" : 117.399529202,
			"lat" : 23.6712152555001,
			"CapitalX" : 117.399529202,
			"CapitalY" : 23.6712152555001
		}, {
			"code" : 3506,
			"name" : "漳州市",
			"lon" : 117.509761453,
			"lat" : 24.431194725,
			"CapitalX" : 117.653618992,
			"CapitalY" : 24.511626045
		}, {
			"code" : 3502,
			"name" : "厦门市",
			"lon" : 118.1515546875,
			"lat" : 24.6757743975,
			"CapitalX" : 118.086559438,
			"CapitalY" : 24.450277769
		}, {
			"code" : 3508,
			"name" : "龙岩市",
			"lon" : 116.7754383345,
			"lat" : 25.2036509840001,
			"CapitalX" : 117.029716111,
			"CapitalY" : 25.103622175
		}, {
			"code" : 3505,
			"name" : "泉州市",
			"lon" : 118.2999741675,
			"lat" : 25.2314305015001,
			"CapitalX" : 118.590494049,
			"CapitalY" : 24.909529978
		}, {
			"code" : 3503,
			"name" : "莆田市",
			"lon" : 118.900137779,
			"lat" : 25.4395356085001,
			"CapitalX" : 119.011707039,
			"CapitalY" : 25.433855138
		}, {
			"code" : 3501,
			"name" : "福州市",
			"lon" : 119.161442799,
			"lat" : 25.9884810825,
			"CapitalX" : 119.317737713,
			"CapitalY" : 26.036488762
		}, {
			"code" : 3504,
			"name" : "三明市",
			"lon" : 117.502395694,
			"lat" : 26.318204771,
			"CapitalX" : 117.603695792,
			"CapitalY" : 26.219978722
		}, {
			"code" : 3507,
			"name" : "南平市",
			"lon" : 118.1152079325,
			"lat" : 27.3069304620001,
			"CapitalX" : 118.169772168,
			"CapitalY" : 26.642110634
		}, {
			"code" : 3509,
			"name" : "宁德市",
			"lon" : 119.4806914365,
			"lat" : 27.013074159,
			"CapitalX" : 119.517896032,
			"CapitalY" : 26.661148361
		}
	],
	"3600" : [{
			"code" : 3603,
			"name" : "萍乡市",
			"lon" : 113.8991995705,
			"lat" : 27.6674466920001,
			"CapitalX" : 113.839125853,
			"CapitalY" : 27.63140381
		}, {
			"code" : "莲花县",
			"name" : "莲花县",
			"lon" : 113.9430238135,
			"lat" : 27.1843147455,
			"CapitalX" : 113.9430238135,
			"CapitalY" : 27.1843147455
		}, {
			"code" : "临川市",
			"name" : "临川市",
			"lon" : 116.426736688,
			"lat" : 27.486989933,
			"CapitalX" : 116.351892742,
			"CapitalY" : 27.984760882
		}, {
			"code" : 3606,
			"name" : "鹰潭市",
			"lon" : 117.069523585,
			"lat" : 28.2412170695,
			"CapitalX" : 117.033121629,
			"CapitalY" : 28.241102942
		}, {
			"code" : 3608,
			"name" : "吉安市",
			"lon" : 114.8708346,
			"lat" : 26.9574251975,
			"CapitalX" : 114.971792882,
			"CapitalY" : 27.103200478
		}, {
			"code" : 3607,
			"name" : "赣州市",
			"lon" : 115.245759665,
			"lat" : 25.8155572825001,
			"CapitalX" : 114.932986351,
			"CapitalY" : 25.846927722
		}, {
			"code" : 3605,
			"name" : "新余市",
			"lon" : 114.926746076,
			"lat" : 27.7938855760001,
			"CapitalX" : 114.931655092,
			"CapitalY" : 27.804055527
		}, {
			"code" : 3609,
			"name" : "宜春市",
			"lon" : 114.980952658,
			"lat" : 28.3064020345001,
			"CapitalX" : 114.376390598,
			"CapitalY" : 27.794248303
		}, {
			"code" : 3601,
			"name" : "南昌市",
			"lon" : 115.9895742415,
			"lat" : 28.6647816265001,
			"CapitalX" : 115.898264532,
			"CapitalY" : 28.674896203
		}, {
			"code" : 3604,
			"name" : "九江市",
			"lon" : 115.38856631,
			"lat" : 29.3629046350001,
			"CapitalX" : 115.986232408,
			"CapitalY" : 29.722391917
		}, {
			"code" : 3611,
			"name" : "上饶市",
			"lon" : 117.3434668145,
			"lat" : 28.7628157810001,
			"CapitalX" : 117.965486717,
			"CapitalY" : 28.450676527
		}, {
			"code" : 3602,
			"name" : "景德镇市",
			"lon" : 117.3438844925,
			"lat" : 29.3342597880001,
			"CapitalX" : 117.210871994,
			"CapitalY" : 29.290653164
		}
	],
	"3700" : [{
			"code" : 3712,
			"name" : "莱芜市",
			"lon" : 117.6343922555,
			"lat" : 36.2793354345001,
			"CapitalX" : 117.662371465,
			"CapitalY" : 36.205307727
		}, {
			"code" : "菏泽市",
			"name" : "菏泽市",
			"lon" : 115.577479535,
			"lat" : 35.1974702435,
			"CapitalX" : 115.444702117,
			"CapitalY" : 35.250429758
		}, {
			"code" : 3715,
			"name" : "聊城市",
			"lon" : 115.891010934,
			"lat" : 36.405479317,
			"CapitalX" : 115.989286258,
			"CapitalY" : 36.44794576
		}, {
			"code" : 3714,
			"name" : "德州市",
			"lon" : 116.6470697495,
			"lat" : 37.1939209925,
			"CapitalX" : 116.288022713,
			"CapitalY" : 37.451876621
		}, {
			"code" : 3708,
			"name" : "济宁市",
			"lon" : 116.711326861,
			"lat" : 35.2750348055,
			"CapitalX" : 116.578474985,
			"CapitalY" : 35.410607474
		}, {
			"code" : 3704,
			"name" : "枣庄市",
			"lon" : 117.2937349685,
			"lat" : 34.8842975065001,
			"CapitalX" : 117.560418136,
			"CapitalY" : 34.872578314
		}, {
			"code" : 3713,
			"name" : "临沂市",
			"lon" : 118.2916269555,
			"lat" : 35.281871068,
			"CapitalX" : 118.341601152,
			"CapitalY" : 35.071718422
		}, {
			"code" : 3711,
			"name" : "日照市",
			"lon" : 119.095710211,
			"lat" : 35.5433759235,
			"CapitalX" : 119.547096788,
			"CapitalY" : 35.393341146
		}, {
			"code" : 3702,
			"name" : "青岛市",
			"lon" : 120.220363024,
			"lat" : 36.3465704195001,
			"CapitalX" : 120.347454669,
			"CapitalY" : 36.078767234
		}, {
			"code" : 3710,
			"name" : "威海市",
			"lon" : 121.911389248,
			"lat" : 37.1389586580001,
			"CapitalX" : 122.109036755,
			"CapitalY" : 37.501117639
		}, {
			"code" : 3706,
			"name" : "烟台市",
			"lon" : 120.7086106835,
			"lat" : 37.1983083945,
			"CapitalX" : 121.380057001,
			"CapitalY" : 37.534212216
		}, {
			"code" : 3707,
			"name" : "潍坊市",
			"lon" : 119.0635817115,
			"lat" : 36.4930898145001,
			"CapitalX" : 119.107186027,
			"CapitalY" : 36.702901653
		}, {
			"code" : 3703,
			"name" : "淄博市",
			"lon" : 118.023994518,
			"lat" : 36.6088900935,
			"CapitalX" : 118.059037485,
			"CapitalY" : 36.792250893
		}, {
			"code" : 3709,
			"name" : "泰安市",
			"lon" : 117.007606576,
			"lat" : 36.0424984780001,
			"CapitalX" : 117.127816361,
			"CapitalY" : 36.189193136
		}, {
			"code" : 3701,
			"name" : "济南市",
			"lon" : 116.9376788505,
			"lat" : 36.7697630725001,
			"CapitalX" : 117.002116525,
			"CapitalY" : 36.650337885
		}, {
			"code" : 3705,
			"name" : "东营市",
			"lon" : 118.554502597,
			"lat" : 37.5221440780001,
			"CapitalX" : 118.495885649,
			"CapitalY" : 37.460027797
		}, {
			"code" : 3716,
			"name" : "滨州市",
			"lon" : 117.7797305055,
			"lat" : 37.444159946,
			"CapitalX" : 118.024411498,
			"CapitalY" : 37.368350082
		}
	],
	"4100" : [{
			"code" : "济源市",
			"name" : "济源市",
			"lon" : 112.378704923,
			"lat" : 35.0732183785001,
			"CapitalX" : 112.583160254,
			"CapitalY" : 35.092624098
		}, {
			"code" : 4115,
			"name" : "信阳市",
			"lon" : 114.7863391035,
			"lat" : 32.0310398215,
			"CapitalX" : 114.069754472,
			"CapitalY" : 32.131219482
		}, {
			"code" : 4117,
			"name" : "驻马店市",
			"lon" : 114.125262997,
			"lat" : 32.896819156,
			"CapitalX" : 114.035308367,
			"CapitalY" : 32.976300331
		}, {
			"code" : 4112,
			"name" : "三门峡市",
			"lon" : 111.1662407355,
			"lat" : 34.318333933,
			"CapitalX" : 111.19541894,
			"CapitalY" : 34.781883098
		}, {
			"code" : 4103,
			"name" : "洛阳市",
			"lon" : 112.0211447105,
			"lat" : 34.3339448185,
			"CapitalX" : 112.38311206,
			"CapitalY" : 34.665451422
		}, {
			"code" : 4104,
			"name" : "平顶山市",
			"lon" : 112.9573237915,
			"lat" : 33.7576860425,
			"CapitalX" : 113.301012525,
			"CapitalY" : 33.747675067
		}, {
			"code" : 4111,
			"name" : "漯河市",
			"lon" : 113.8843958705,
			"lat" : 33.7004434995,
			"CapitalX" : 114.040772061,
			"CapitalY" : 33.57361033
		}, {
			"code" : 4110,
			"name" : "许昌市",
			"lon" : 113.664501082,
			"lat" : 34.0519678225,
			"CapitalX" : 113.8202687,
			"CapitalY" : 34.031543532
		}, {
			"code" : 4101,
			"name" : "郑州市",
			"lon" : 113.4546926705,
			"lat" : 34.6138799945001,
			"CapitalX" : 113.641828179,
			"CapitalY" : 34.758248745
		}, {
			"code" : 4108,
			"name" : "焦作市",
			"lon" : 113.059964463,
			"lat" : 35.134329417,
			"CapitalX" : 113.222939412,
			"CapitalY" : 35.25132071
		}, {
			"code" : 4105,
			"name" : "安阳市",
			"lon" : 114.2963211475,
			"lat" : 35.7799357215,
			"CapitalX" : 114.346046965,
			"CapitalY" : 36.098548371
		}, {
			"code" : 4106,
			"name" : "鹤壁市",
			"lon" : 114.351400384,
			"lat" : 35.7578786545,
			"CapitalX" : 114.174210732,
			"CapitalY" : 35.904260986
		}, {
			"code" : 4107,
			"name" : "新乡市",
			"lon" : 114.1667585565,
			"lat" : 35.3486344405,
			"CapitalX" : 113.868778106,
			"CapitalY" : 35.310126512
		}, {
			"code" : 4102,
			"name" : "开封市",
			"lon" : 114.5401055985,
			"lat" : 34.6138547825001,
			"CapitalX" : 114.343868094,
			"CapitalY" : 34.785647432
		}, {
			"code" : 4116,
			"name" : "周口市",
			"lon" : 114.863520899,
			"lat" : 33.7001148205,
			"CapitalX" : 114.635878875,
			"CapitalY" : 33.629639278
		}, {
			"code" : 4114,
			"name" : "商丘市",
			"lon" : 115.722824856,
			"lat" : 34.2835266760001,
			"CapitalX" : 115.646642193,
			"CapitalY" : 34.447817512
		}, {
			"code" : 4109,
			"name" : "濮阳市",
			"lon" : 115.4802851015,
			"lat" : 35.77792658,
			"CapitalX" : 115.006493322,
			"CapitalY" : 35.754477185
		}, {
			"code" : 4113,
			"name" : "南阳市",
			"lon" : 112.3711982785,
			"lat" : 33.030359657,
			"CapitalX" : 112.535947055,
			"CapitalY" : 33.001807994
		}
	],
	"4200" : [{
			"code" : "神农架林区",
			"name" : "神农架林区",
			"lon" : 110.441963575,
			"lat" : 31.5813374830001,
			"CapitalX" : 110.677369408,
			"CapitalY" : 31.754418752
		}, {
			"code" : "天门市",
			"name" : "天门市",
			"lon" : 113.0098946895,
			"lat" : 30.6407827100001,
			"CapitalX" : 113.164602131,
			"CapitalY" : 30.656314198
		}, {
			"code" : 4207,
			"name" : "鄂州市",
			"lon" : 114.7880094845,
			"lat" : 30.3256629665001,
			"CapitalX" : 114.880436833,
			"CapitalY" : 30.402768713
		}, {
			"code" : "潜江市",
			"name" : "潜江市",
			"lon" : 112.7383166075,
			"lat" : 30.3492471755001,
			"CapitalX" : 112.893433666,
			"CapitalY" : 30.421010818
		}, {
			"code" : "仙桃市",
			"name" : "仙桃市",
			"lon" : 113.3768007605,
			"lat" : 30.315326135,
			"CapitalX" : 113.45331849,
			"CapitalY" : 30.371820424
		}, {
			"code" : 4203,
			"name" : "十堰市",
			"lon" : 110.4903518065,
			"lat" : 32.3763074045001,
			"CapitalX" : 110.784966572,
			"CapitalY" : 32.656838965
		}, {
			"code" : 4206,
			"name" : "襄樊市",
			"lon" : 111.904295259,
			"lat" : 31.9340804875001,
			"CapitalX" : 112.139621149,
			"CapitalY" : 32.049326703
		}, {
			"code" : 4205,
			"name" : "宜昌市",
			"lon" : 111.1522135115,
			"lat" : 30.7725123280001,
			"CapitalX" : 111.287551451,
			"CapitalY" : 30.704299102
		}, {
			"code" : "恩施市",
			"name" : "恩施市",
			"lon" : 109.4713551095,
			"lat" : 30.2612339895,
			"CapitalX" : 109.478990268,
			"CapitalY" : 30.272324913
		}, {
			"code" : "沙市市",
			"name" : "沙市市",
			"lon" : 112.665099202,
			"lat" : 30.0488765505,
			"CapitalX" : 112.249155785,
			"CapitalY" : 30.316369268
		}, {
			"code" : 4208,
			"name" : "荆门市",
			"lon" : 112.675607268,
			"lat" : 31.0127259535001,
			"CapitalX" : 112.198877773,
			"CapitalY" : 31.028805803
		}, {
			"code" : 4202,
			"name" : "黄石市",
			"lon" : 114.9877598295,
			"lat" : 29.9242434925001,
			"CapitalX" : 115.077191046,
			"CapitalY" : 30.212446802
		}, {
			"code" : 4212,
			"name" : "咸宁市",
			"lon" : 114.2041913095,
			"lat" : 29.6521874225,
			"CapitalX" : 114.272127973,
			"CapitalY" : 29.892518367
		}, {
			"code" : "麻城市",
			"name" : "麻城市",
			"lon" : 115.250195451,
			"lat" : 30.6575526715001,
			"CapitalX" : 115.031505149,
			"CapitalY" : 31.180988999
		}, {
			"code" : 4201,
			"name" : "武汉市",
			"lon" : 114.3450987375,
			"lat" : 30.6884013880001,
			"CapitalX" : 114.274931622,
			"CapitalY" : 30.585110033
		}, {
			"code" : 4213,
			"name" : "随州市",
			"lon" : 113.4333776885,
			"lat" : 31.878991831,
			"CapitalX" : 113.4333776885,
			"CapitalY" : 31.878991831
		}, {
			"code" : 4209,
			"name" : "孝感市",
			"lon" : 113.9284119595,
			"lat" : 31.117624976,
			"CapitalX" : 113.910853629,
			"CapitalY" : 30.926290658
		}
	],
	"4300" : [{
			"code" : "大庸市",
			"name" : "大庸市",
			"lon" : 110.469079917,
			"lat" : 29.3311541900001,
			"CapitalX" : 110.485113138,
			"CapitalY" : 29.127984548
		}, {
			"code" : "吉首市",
			"name" : "吉首市",
			"lon" : 109.769894077,
			"lat" : 28.6819056790001,
			"CapitalX" : 109.733399894,
			"CapitalY" : 28.310358273
		}, {
			"code" : 4312,
			"name" : "怀化市",
			"lon" : 109.948961657,
			"lat" : 27.4385409085001,
			"CapitalX" : 109.95719319,
			"CapitalY" : 27.54709966
		}, {
			"code" : 4309,
			"name" : "益阳市",
			"lon" : 111.8110719815,
			"lat" : 28.7512690905,
			"CapitalX" : 112.335740466,
			"CapitalY" : 28.597820202
		}, {
			"code" : 4313,
			"name" : "娄底市",
			"lon" : 111.6056892755,
			"lat" : 27.6962811670001,
			"CapitalX" : 111.992717851,
			"CapitalY" : 27.74184097
		}, {
			"code" : 4307,
			"name" : "常德市",
			"lon" : 111.402548075,
			"lat" : 29.2719082725,
			"CapitalX" : 111.69173515,
			"CapitalY" : 29.034832231
		}, {
			"code" : 4306,
			"name" : "岳阳市",
			"lon" : 113.2233598915,
			"lat" : 29.106248071,
			"CapitalX" : 113.098134185,
			"CapitalY" : 29.37128961
		}, {
			"code" : 4301,
			"name" : "长沙市",
			"lon" : 113.058455095,
			"lat" : 28.222912304,
			"CapitalX" : 112.978595758,
			"CapitalY" : 28.198196165
		}, {
			"code" : 4303,
			"name" : "湘潭市",
			"lon" : 112.5209364465,
			"lat" : 27.6941205150001,
			"CapitalX" : 112.9117226,
			"CapitalY" : 27.87268754
		}, {
			"code" : "株州市",
			"name" : "株州市",
			"lon" : 113.5111395675,
			"lat" : 27.0398834810001,
			"CapitalX" : 113.5111395675,
			"CapitalY" : 27.0398834810001
		}, {
			"code" : 4304,
			"name" : "衡阳市",
			"lon" : 112.3677284115,
			"lat" : 26.7835554165001,
			"CapitalX" : 112.597490379,
			"CapitalY" : 26.901581129
		}, {
			"code" : 4305,
			"name" : "邵阳市",
			"lon" : 110.933716304,
			"lat" : 26.8164711815,
			"CapitalX" : 111.475362297,
			"CapitalY" : 27.249292107
		}, {
			"code" : 4311,
			"name" : "永州市",
			"lon" : 111.690692938,
			"lat" : 25.768405902,
			"CapitalX" : 111.612982069,
			"CapitalY" : 26.210287265
		}, {
			"code" : 4310,
			"name" : "郴州市",
			"lon" : 113.2103184875,
			"lat" : 25.8702384570001,
			"CapitalX" : 113.025597203,
			"CapitalY" : 25.802651846
		}
	],
	"4400" : [{
			"code" : "南澳县",
			"name" : "南澳县",
			"lon" : 117.0527900695,
			"lat" : 23.4482650995,
			"CapitalX" : 117.0527900695,
			"CapitalY" : 23.4482650995
		}, {
			"code" : 4419,
			"name" : "东莞市",
			"lon" : 113.8624428445,
			"lat" : 22.8998419475001,
			"CapitalX" : 113.750285639,
			"CapitalY" : 23.046478765
		}, {
			"code" : 4420,
			"name" : "中山市",
			"lon" : 113.345225546,
			"lat" : 22.5024859510001,
			"CapitalX" : 113.374054438,
			"CapitalY" : 22.525652725
		}, {
			"code" : 4404,
			"name" : "珠海市",
			"lon" : 113.5054926665,
			"lat" : 22.2979702215,
			"CapitalX" : 113.571858571,
			"CapitalY" : 22.272531301
		}, {
			"code" : 4408,
			"name" : "湛江市",
			"lon" : 110.2953774295,
			"lat" : 21.0865462055,
			"CapitalX" : 110.403015767,
			"CapitalY" : 21.194725897
		}, {
			"code" : 4409,
			"name" : "茂名市",
			"lon" : 110.99360876,
			"lat" : 22.0690038950001,
			"CapitalX" : 110.893379401,
			"CapitalY" : 21.67289488
		}, {
			"code" : "阳西县",
			"name" : "阳西县",
			"lon" : 111.8231991115,
			"lat" : 22.1085703510001,
			"CapitalX" : 111.8231991115,
			"CapitalY" : 22.1085703510001
		}, {
			"code" : 4407,
			"name" : "江门市",
			"lon" : 112.6141169245,
			"lat" : 22.2971893340001,
			"CapitalX" : 113.08658742,
			"CapitalY" : 22.589265258
		}, {
			"code" : 4401,
			"name" : "广州市",
			"lon" : 113.49270166,
			"lat" : 23.283437622,
			"CapitalX" : 113.256523499,
			"CapitalY" : 23.13448359
		}, {
			"code" : 4418,
			"name" : "清远市",
			"lon" : 112.9022021015,
			"lat" : 24.334319638,
			"CapitalX" : 113.022579568,
			"CapitalY" : 23.7206042
		}, {
			"code" : 4412,
			"name" : "肇庆市",
			"lon" : 112.092119254,
			"lat" : 23.6022687630001,
			"CapitalX" : 112.45211291,
			"CapitalY" : 23.05809477
		}, {
			"code" : 4402,
			"name" : "韶关市",
			"lon" : 113.7721024075,
			"lat" : 24.698371174,
			"CapitalX" : 113.603888273,
			"CapitalY" : 24.810113053
		}, {
			"code" : 4413,
			"name" : "惠州市",
			"lon" : 114.597381808,
			"lat" : 23.2527701085001,
			"CapitalX" : 114.389911852,
			"CapitalY" : 23.09016603
		}, {
			"code" : 4406,
			"name" : "佛山市",
			"lon" : 112.8452872545,
			"lat" : 23.101009432,
			"CapitalX" : 113.116229625,
			"CapitalY" : 23.034643278
		}, {
			"code" : 4453,
			"name" : "云浮市",
			"lon" : 111.796841032,
			"lat" : 22.8402385955001,
			"CapitalX" : 111.796841032,
			"CapitalY" : 22.8402385955001
		}, {
			"code" : 4403,
			"name" : "深圳市",
			"lon" : 114.173245677,
			"lat" : 22.6493894550001,
			"CapitalX" : 114.111373005,
			"CapitalY" : 22.552942339
		}, {
			"code" : "海丰县",
			"name" : "海丰县",
			"lon" : 115.4967918125,
			"lat" : 23.0697296245,
			"CapitalX" : 115.4967918125,
			"CapitalY" : 23.0697296245
		}, {
			"code" : 4416,
			"name" : "河源市",
			"lon" : 114.911300557,
			"lat" : 23.9795781185001,
			"CapitalX" : 114.6919518,
			"CapitalY" : 23.736705555
		}, {
			"code" : "揭阳县",
			"name" : "揭阳县",
			"lon" : 116.109908362,
			"lat" : 23.3036520350001,
			"CapitalX" : 116.109908362,
			"CapitalY" : 23.3036520350001
		}, {
			"code" : 4405,
			"name" : "汕头市",
			"lon" : 116.5723768015,
			"lat" : 23.3588235815,
			"CapitalX" : 116.683420039,
			"CapitalY" : 23.363809931
		}, {
			"code" : 4451,
			"name" : "潮州市",
			"lon" : 116.770941331,
			"lat" : 23.8542311055,
			"CapitalX" : 116.637200132,
			"CapitalY" : 23.667569213
		}, {
			"code" : 4414,
			"name" : "梅州市",
			"lon" : 116.1320939075,
			"lat" : 24.156196882,
			"CapitalX" : 116.111029693,
			"CapitalY" : 24.315663407
		}
	],
	"4500" : [{
			"code" : "凤山县",
			"name" : "凤山县",
			"lon" : 120.5957685835,
			"lat" : 22.984094901,
			"CapitalX" : 120.5957685835,
			"CapitalY" : 22.984094901
		}, {
			"code" : 4505,
			"name" : "北海市",
			"lon" : 109.2775432715,
			"lat" : 21.7160670755,
			"CapitalX" : 109.122133996,
			"CapitalY" : 21.479080456
		}, {
			"code" : 4510,
			"name" : "百色市",
			"lon" : 106.1827268005,
			"lat" : 23.982089181,
			"CapitalX" : 106.611964799,
			"CapitalY" : 23.904435534
		}, {
			"code" : "凭祥市",
			"name" : "凭祥市",
			"lon" : 107.3415922315,
			"lat" : 22.4975364265001,
			"CapitalX" : 107.3415922315,
			"CapitalY" : 22.4975364265001
		}, {
			"code" : 4506,
			"name" : "防城港市",
			"lon" : 108.02594077,
			"lat" : 21.9453244515001,
			"CapitalX" : 108.356905146,
			"CapitalY" : 21.768769988
		}, {
			"code" : 4501,
			"name" : "南宁市",
			"lon" : 108.286283264,
			"lat" : 22.8967208815,
			"CapitalX" : 108.312396407,
			"CapitalY" : 22.806007751
		}, {
			"code" : "马山县",
			"name" : "马山县",
			"lon" : 108.637024467,
			"lat" : 23.2759766300001,
			"CapitalX" : 108.637024467,
			"CapitalY" : 23.2759766300001
		}, {
			"code" : 4507,
			"name" : "钦州市",
			"lon" : 109.0094292665,
			"lat" : 22.1575161265,
			"CapitalX" : 108.614732157,
			"CapitalY" : 21.951264514
		}, {
			"code" : 4509,
			"name" : "玉林市",
			"lon" : 110.199914072,
			"lat" : 22.3916538585001,
			"CapitalX" : 110.146253003,
			"CapitalY" : 22.631948941
		}, {
			"code" : 4504,
			"name" : "梧州市",
			"lon" : 110.9706536175,
			"lat" : 23.517991974,
			"CapitalX" : 111.308975164,
			"CapitalY" : 23.486772533
		}, {
			"code" : 4511,
			"name" : "贺州市",
			"lon" : 111.300886547,
			"lat" : 24.4093917445001,
			"CapitalX" : 111.534963895,
			"CapitalY" : 24.417158406
		}, {
			"code" : 4503,
			"name" : "桂林市",
			"lon" : 110.5210972865,
			"lat" : 25.3570508985001,
			"CapitalX" : 110.286644357,
			"CapitalY" : 25.279986415
		}, {
			"code" : 4502,
			"name" : "柳州市",
			"lon" : 109.2816437665,
			"lat" : 24.399382491,
			"CapitalX" : 109.404758545,
			"CapitalY" : 24.309889885
		}, {
			"code" : 4512,
			"name" : "河池市",
			"lon" : 107.8739797275,
			"lat" : 24.645904335,
			"CapitalX" : 108.049894284,
			"CapitalY" : 24.694013566
		}, {
			"code" : 4508,
			"name" : "贵港市",
			"lon" : 109.9272568665,
			"lat" : 23.380592769,
			"CapitalX" : 109.608800494,
			"CapitalY" : 23.098960031
		}, {
			"code" : "合山市",
			"name" : "合山市",
			"lon" : 109.42112155,
			"lat" : 24.6745860480001,
			"CapitalX" : 109.42112155,
			"CapitalY" : 24.6745860480001
		}
	],
	"4600" : [{
			"code" : 4602,
			"name" : "三亚市",
			"lon" : 109.402973196,
			"lat" : 18.3913189220001,
			"CapitalX" : 109.513606828,
			"CapitalY" : 18.237653676
		}, {
			"code" : 4601,
			"name" : "海口市",
			"lon" : 109.8255650025,
			"lat" : 19.2521551390001,
			"CapitalX" : 110.340051352,
			"CapitalY" : 20.033573218
		}
	],
	"5000" : [{
			"code" : "黔江土家族苗族自治县",
			"name" : "黔江土家族苗族自治县",
			"lon" : 108.72989,
			"lat" : 31.888693,
			"CapitalX" : 108.72989,
			"CapitalY" : 31.888693
		}, {
			"code" : 5038,
			"name" : "巫溪县",
			"lon" : 109.35124,
			"lat" : 31.508818,
			"CapitalX" : 109.35124,
			"CapitalY" : 31.508818
		}, {
			"code" : "开县",
			"name" : "开县",
			"lon" : 108.38021,
			"lat" : 31.277237,
			"CapitalX" : 108.38021,
			"CapitalY" : 31.277237
		}, {
			"code" : 5037,
			"name" : "巫山县",
			"lon" : 109.89612,
			"lat" : 31.119705,
			"CapitalX" : 109.89612,
			"CapitalY" : 31.119705
		}, {
			"code" : 5035,
			"name" : "云阳县",
			"lon" : 108.85121,
			"lat" : 31.040518,
			"CapitalX" : 108.85121,
			"CapitalY" : 31.040518
		}, {
			"code" : 5036,
			"name" : "奉节县",
			"lon" : 109.34271,
			"lat" : 30.956833,
			"CapitalX" : 109.34271,
			"CapitalY" : 30.956833
		}, {
			"code" : 5028,
			"name" : "梁平县",
			"lon" : 107.71382,
			"lat" : 30.657969,
			"CapitalX" : 107.71382,
			"CapitalY" : 30.657969
		}, {
			"code" : 5033,
			"name" : "忠县",
			"lon" : 107.9096,
			"lat" : 30.337326,
			"CapitalX" : 107.9096,
			"CapitalY" : 30.337326
		}, {
			"code" : 5040,
			"name" : "石柱土家族自治县",
			"lon" : 108.29295,
			"lat" : 30.093557,
			"CapitalX" : 108.29295,
			"CapitalY" : 30.093557
		}, {
			"code" : 5031,
			"name" : "垫江县",
			"lon" : 107.43155,
			"lat" : 30.254801,
			"CapitalX" : 107.43155,
			"CapitalY" : 30.254801
		}, {
			"code" : "潼南县",
			"name" : "潼南县",
			"lon" : 105.80875,
			"lat" : 30.142319,
			"CapitalX" : 105.80875,
			"CapitalY" : 30.142319
		}, {
			"code" : "合川市",
			"name" : "合川市",
			"lon" : 106.30724,
			"lat" : 30.114397,
			"CapitalX" : 106.30724,
			"CapitalY" : 30.114397
		}, {
			"code" : 5030,
			"name" : "丰都县",
			"lon" : 107.82483,
			"lat" : 29.886827,
			"CapitalX" : 107.82483,
			"CapitalY" : 29.886827
		}, {
			"code" : "长寿县",
			"name" : "长寿县",
			"lon" : 107.13407,
			"lat" : 29.955494,
			"CapitalX" : 107.13407,
			"CapitalY" : 29.955494
		}, {
			"code" : 5012,
			"name" : "渝北区",
			"lon" : 106.74615,
			"lat" : 29.809517,
			"CapitalX" : 106.74615,
			"CapitalY" : 29.809517
		}, {
			"code" : 5009,
			"name" : "北碚区",
			"lon" : 106.51554,
			"lat" : 29.864229,
			"CapitalX" : 106.51554,
			"CapitalY" : 29.864229
		}, {
			"code" : "铜梁县",
			"name" : "铜梁县",
			"lon" : 106.03049,
			"lat" : 29.815481,
			"CapitalX" : 106.03049,
			"CapitalY" : 29.815481
		}, {
			"code" : 5002,
			"name" : "涪陵区",
			"lon" : 107.32923,
			"lat" : 29.661587,
			"CapitalX" : 107.32923,
			"CapitalY" : 29.661587
		}, {
			"code" : "璧山县",
			"name" : "璧山县",
			"lon" : 106.18709,
			"lat" : 29.562273,
			"CapitalX" : 106.18709,
			"CapitalY" : 29.562273
		}, {
			"code" : "大足县",
			"name" : "大足县",
			"lon" : 105.73769,
			"lat" : 29.657038,
			"CapitalX" : 105.73769,
			"CapitalY" : 29.657038
		}, {
			"code" : 5043,
			"name" : "彭水苗族土家族自治县",
			"lon" : 108.25929,
			"lat" : 29.352627,
			"CapitalX" : 108.25929,
			"CapitalY" : 29.352627
		}, {
			"code" : 5013,
			"name" : "巴南区",
			"lon" : 106.74808,
			"lat" : 29.370502,
			"CapitalX" : 106.74808,
			"CapitalY" : 29.370502
		}, {
			"code" : 5006,
			"name" : "沙坪坝区",
			"lon" : 106.37531,
			"lat" : 29.620653,
			"CapitalX" : 106.37531,
			"CapitalY" : 29.620653
		}, {
			"code" : "荣昌县",
			"name" : "荣昌县",
			"lon" : 105.50195,
			"lat" : 29.466389,
			"CapitalX" : 105.50195,
			"CapitalY" : 29.466389
		}, {
			"code" : 5005,
			"name" : "江北区",
			"lon" : 106.71174,
			"lat" : 29.61635,
			"CapitalX" : 106.71174,
			"CapitalY" : 29.61635
		}, {
			"code" : 5032,
			"name" : "武隆县",
			"lon" : 107.70396,
			"lat" : 29.377943,
			"CapitalX" : 107.70396,
			"CapitalY" : 29.377943
		}, {
			"code" : 5008,
			"name" : "南岸区",
			"lon" : 106.65389,
			"lat" : 29.530157,
			"CapitalX" : 106.65389,
			"CapitalY" : 29.530157
		}, {
			"code" : 5007,
			"name" : "九龙坡区",
			"lon" : 106.3565,
			"lat" : 29.428799,
			"CapitalX" : 106.3565,
			"CapitalY" : 29.428799
		}, {
			"code" : "永川市",
			"name" : "永川市",
			"lon" : 105.86864,
			"lat" : 29.292503,
			"CapitalX" : 105.86864,
			"CapitalY" : 29.292503
		}, {
			"code" : "双桥区",
			"name" : "双桥区",
			"lon" : 105.78141,
			"lat" : 29.498251,
			"CapitalX" : 105.78141,
			"CapitalY" : 29.498251
		}, {
			"code" : 5004,
			"name" : "大渡口区",
			"lon" : 106.45473,
			"lat" : 29.423531,
			"CapitalX" : 106.45473,
			"CapitalY" : 29.423531
		}, {
			"code" : "南川市",
			"name" : "南川市",
			"lon" : 107.16834,
			"lat" : 29.136808,
			"CapitalX" : 107.16834,
			"CapitalY" : 29.136808
		}, {
			"code" : "江津市",
			"name" : "江津市",
			"lon" : 106.25806,
			"lat" : 29.030903,
			"CapitalX" : 106.25806,
			"CapitalY" : 29.030903
		}, {
			"code" : 5042,
			"name" : "酉阳土家族苗族自治县",
			"lon" : 108.79555,
			"lat" : 28.899174,
			"CapitalX" : 108.79555,
			"CapitalY" : 28.899174
		}, {
			"code" : "綦江县",
			"name" : "綦江县",
			"lon" : 106.66798,
			"lat" : 28.872746,
			"CapitalX" : 106.66798,
			"CapitalY" : 28.872746
		}, {
			"code" : "万盛区",
			"name" : "万盛区",
			"lon" : 106.91337,
			"lat" : 28.916147,
			"CapitalX" : 106.91337,
			"CapitalY" : 28.916147
		}, {
			"code" : 5041,
			"name" : "秀山土家族苗族自治县",
			"lon" : 109.01367,
			"lat" : 28.492739,
			"CapitalX" : 109.01367,
			"CapitalY" : 28.492739
		}
	],
	"5100" : [{
			"code" : 5104,
			"name" : "攀枝花市",
			"lon" : 101.7192207525,
			"lat" : 26.7144495895,
			"CapitalX" : 101.698298905,
			"CapitalY" : 26.554460986
		}, {
			"code" : "西昌市",
			"name" : "西昌市",
			"lon" : 102.043992472,
			"lat" : 27.6830090715001,
			"CapitalX" : 102.267126387,
			"CapitalY" : 27.899830029
		}, {
			"code" : 5115,
			"name" : "宜宾市",
			"lon" : 104.4877174145,
			"lat" : 28.553511377,
			"CapitalX" : 104.616602436,
			"CapitalY" : 28.774867871
		}, {
			"code" : 511100,
			"name" : "乐山市",
			"lon" : 103.5959781235,
			"lat" : 29.160782314,
			"CapitalX" : 103.751780394,
			"CapitalY" : 29.570745547
		}, {
			"code" : 5103,
			"name" : "自贡市",
			"lon" : 104.688583109,
			"lat" : 29.2731814805,
			"CapitalX" : 104.776238235,
			"CapitalY" : 29.370375163
		}, {
			"code" : 511000,
			"name" : "内江市",
			"lon" : 104.83915171,
			"lat" : 29.612764327,
			"CapitalX" : 105.054146421,
			"CapitalY" : 29.58081249
		}, {
			"code" : "达川市",
			"name" : "达川市",
			"lon" : 107.6000828175,
			"lat" : 31.3214611480001,
			"CapitalX" : 107.6000828175,
			"CapitalY" : 31.3214611480001
		}, {
			"code" : "遂宁县",
			"name" : "遂宁县",
			"lon" : 105.5423093015,
			"lat" : 30.6746240435,
			"CapitalX" : 105.5423093015,
			"CapitalY" : 30.6746240435
		}, {
			"code" : "华蓥市",
			"name" : "华蓥市",
			"lon" : 106.6102709135,
			"lat" : 30.4367741610001,
			"CapitalX" : 106.6102709135,
			"CapitalY" : 30.4367741610001
		}, {
			"code" : 5105,
			"name" : "泸州市",
			"lon" : 105.763153813,
			"lat" : 28.5021644365,
			"CapitalX" : 105.437265187,
			"CapitalY" : 28.884400376
		}, {
			"code" : 5120,
			"name" : "资阳市",
			"lon" : 104.9821222685,
			"lat" : 30.1543042395001,
			"CapitalX" : 104.650436601,
			"CapitalY" : 30.122744326
		}, {
			"code" : 5118,
			"name" : "雅安市",
			"lon" : 102.6591073245,
			"lat" : 29.892679959,
			"CapitalX" : 102.984569954,
			"CapitalY" : 29.985628336
		}, {
			"code" : "仁寿县",
			"name" : "仁寿县",
			"lon" : 103.6774115035,
			"lat" : 29.8938513350001,
			"CapitalX" : 103.6774115035,
			"CapitalY" : 29.8938513350001
		}, {
			"code" : "康定县",
			"name" : "康定县",
			"lon" : 99.9090136600001,
			"lat" : 30.9752992705001,
			"CapitalX" : 101.958661464,
			"CapitalY" : 30.052621654
		}, {
			"code" : 5108,
			"name" : "广元市",
			"lon" : 105.6995703675,
			"lat" : 32.2208277855,
			"CapitalX" : 105.833276333,
			"CapitalY" : 32.444025179
		}, {
			"code" : "巴中县",
			"name" : "巴中县",
			"lon" : 107.0640922055,
			"lat" : 31.9988458155001,
			"CapitalX" : 107.0640922055,
			"CapitalY" : 31.9988458155001
		}, {
			"code" : "南充县",
			"name" : "南充县",
			"lon" : 106.218045126,
			"lat" : 31.1577370730001,
			"CapitalX" : 106.218045126,
			"CapitalY" : 31.1577370730001
		}, {
			"code" : 5107,
			"name" : "绵阳市",
			"lon" : 104.7414690405,
			"lat" : 31.884576054,
			"CapitalX" : 104.749552827,
			"CapitalY" : 31.459117238
		}, {
			"code" : 5106,
			"name" : "德阳市",
			"lon" : 104.495216354,
			"lat" : 31.1106375325001,
			"CapitalX" : 104.391251898,
			"CapitalY" : 31.132473866
		}, {
			"code" : 5101,
			"name" : "成都市",
			"lon" : 103.9676454935,
			"lat" : 30.7773300600001,
			"CapitalX" : 104.078231938,
			"CapitalY" : 30.650474048
		}, {
			"code" : "马尔康县",
			"name" : "马尔康县",
			"lon" : 102.4851951995,
			"lat" : 32.4573781100001,
			"CapitalX" : 102.233972658,
			"CapitalY" : 31.911134086
		}
	],
	"5200" : [{
			"code" : "凯里市",
			"name" : "凯里市",
			"lon" : 108.4166786745,
			"lat" : 26.4305648135,
			"CapitalX" : 107.977367525,
			"CapitalY" : 26.591626291
		}, {
			"code" : "铜仁市",
			"name" : "铜仁市",
			"lon" : 108.6039459455,
			"lat" : 28.1173512225,
			"CapitalX" : 109.193053411,
			"CapitalY" : 27.722473546
		}, {
			"code" : 5201,
			"name" : "贵阳市",
			"lon" : 106.6939847565,
			"lat" : 26.7978640135001,
			"CapitalX" : 106.709403709,
			"CapitalY" : 26.580748755
		}, {
			"code" : 5204,
			"name" : "安顺市",
			"lon" : 105.8907398345,
			"lat" : 25.9885809200001,
			"CapitalX" : 105.928132027,
			"CapitalY" : 26.24320691
		}, {
			"code" : "兴义市",
			"name" : "兴义市",
			"lon" : 105.569889224,
			"lat" : 25.4047733675001,
			"CapitalX" : 104.896412098,
			"CapitalY" : 25.08727749
		}, {
			"code" : 5202,
			"name" : "六盘水市",
			"lon" : 104.9985013145,
			"lat" : 26.1519890160001,
			"CapitalX" : 104.873634538,
			"CapitalY" : 26.577542135
		}, {
			"code" : "毕节市",
			"name" : "毕节市",
			"lon" : 105.1710971295,
			"lat" : 27.0778811985001,
			"CapitalX" : 105.1710971295,
			"CapitalY" : 27.0778811985001
		}, {
			"code" : 5203,
			"name" : "遵义市",
			"lon" : 106.904187523,
			"lat" : 28.1889281235,
			"CapitalX" : 106.931902636,
			"CapitalY" : 27.695622243
		}, {
			"code" : "都匀市",
			"name" : "都匀市",
			"lon" : 107.2646851025,
			"lat" : 26.2976350150001,
			"CapitalX" : 107.519074444,
			"CapitalY" : 26.265614284
		}
	],
	"5300" : [{
			"code" : "中甸县",
			"name" : "中甸县",
			"lon" : 99.512820321,
			"lat" : 28.0527995535001,
			"CapitalX" : 99.512820321,
			"CapitalY" : 28.0527995535001
		}, {
			"code" : "怒江傈傈族自治州",
			"name" : "怒江傈傈族自治州",
			"lon" : 98.8796836975001,
			"lat" : 26.9826135315001,
			"CapitalX" : 98.8796836975001,
			"CapitalY" : 26.9826135315001
		}, {
			"code" : "云龙县",
			"name" : "云龙县",
			"lon" : 99.9535284170001,
			"lat" : 25.6846733375,
			"CapitalX" : 99.9535284170001,
			"CapitalY" : 25.6846733375
		}, {
			"code" : "潞西市",
			"name" : "潞西市",
			"lon" : 98.1461618650001,
			"lat" : 24.5933290955001,
			"CapitalX" : 98.588681324,
			"CapitalY" : 24.441442013
		}, {
			"code" : 5305,
			"name" : "保山市",
			"lon" : 99.1221152170001,
			"lat" : 24.9792978550001,
			"CapitalX" : 99.166951229,
			"CapitalY" : 25.112375598
		}, {
			"code" : "临沧县",
			"name" : "临沧县",
			"lon" : 99.6280470760001,
			"lat" : 24.0583067385001,
			"CapitalX" : 99.6280470760001,
			"CapitalY" : 24.0583067385001
		}, {
			"code" : "思茅市",
			"name" : "思茅市",
			"lon" : 100.7781940155,
			"lat" : 23.4410906405001,
			"CapitalX" : 100.975565229,
			"CapitalY" : 22.79330303
		}, {
			"code" : "景洪市",
			"name" : "景洪市",
			"lon" : 100.915654917,
			"lat" : 21.8823057310001,
			"CapitalX" : 100.794189736,
			"CapitalY" : 22.012789251
		}, {
			"code" : "丽江纳西族自治县",
			"name" : "丽江纳西族自治县",
			"lon" : 100.459509841,
			"lat" : 26.961874025,
			"CapitalX" : 100.459509841,
			"CapitalY" : 26.961874025
		}, {
			"code" : "楚雄市",
			"name" : "楚雄市",
			"lon" : 101.6152559145,
			"lat" : 25.3695299435001,
			"CapitalX" : 101.543012743,
			"CapitalY" : 25.033001429
		}, {
			"code" : "个旧市",
			"name" : "个旧市",
			"lon" : 103.045952408,
			"lat" : 23.6247359965001,
			"CapitalX" : 103.155733207,
			"CapitalY" : 23.357069581
		}, {
			"code" : "文山县",
			"name" : "文山县",
			"lon" : 104.893892705,
			"lat" : 23.5794602930001,
			"CapitalX" : 104.235771582,
			"CapitalY" : 23.37601668
		}, {
			"code" : 5303,
			"name" : "曲靖市",
			"lon" : 103.919621816,
			"lat" : 25.697175675,
			"CapitalX" : 103.796993616,
			"CapitalY" : 25.495789608
		}, {
			"code" : 5306,
			"name" : "昭通市",
			"lon" : 104.1229787065,
			"lat" : 27.6241681225,
			"CapitalX" : 103.715474837,
			"CapitalY" : 27.343272411
		}, {
			"code" : 5301,
			"name" : "昆明市",
			"lon" : 102.931179962,
			"lat" : 25.4812285745001,
			"CapitalX" : 102.71053391,
			"CapitalY" : 25.045848467
		}, {
			"code" : 5304,
			"name" : "玉溪市",
			"lon" : 102.2133885825,
			"lat" : 24.153985427,
			"CapitalX" : 102.537498312,
			"CapitalY" : 24.355426313
		}
	],
	"5400" : [{
			"code" : "噶尔县",
			"name" : "噶尔县",
			"lon" : 82.3130422650001,
			"lat" : 32.6957799515,
			"CapitalX" : 80.089769609,
			"CapitalY" : 32.504285999
		}, {
			"code" : "日喀则市",
			"name" : "日喀则市",
			"lon" : 86.2017395050001,
			"lat" : 29.5486525415,
			"CapitalX" : 88.876637307,
			"CapitalY" : 29.272105679
		}, {
			"code" : "那曲县",
			"name" : "那曲县",
			"lon" : 89.4491004845001,
			"lat" : 33.2061444225,
			"CapitalX" : 92.056136132,
			"CapitalY" : 31.480310044
		}, {
			"code" : 5401,
			"name" : "拉萨市",
			"lon" : 91.1849637995001,
			"lat" : 30.1437899405001,
			"CapitalX" : 91.134336417,
			"CapitalY" : 29.652417075
		}, {
			"code" : "泽当",
			"name" : "泽当",
			"lon" : 92.2356756060001,
			"lat" : 28.3300119285001,
			"CapitalX" : 91.780442896,
			"CapitalY" : 29.242469182
		}, {
			"code" : "林芝县",
			"name" : "林芝县",
			"lon" : 95.4714314145,
			"lat" : 29.1251428960001,
			"CapitalX" : 94.48420702,
			"CapitalY" : 29.580404197
		}, {
			"code" : "昌都",
			"name" : "昌都",
			"lon" : 96.3867566555001,
			"lat" : 30.4856055715001,
			"CapitalX" : 97.166175588,
			"CapitalY" : 31.143241015
		}
	],
	"6100" : [{
			"code" : 6108,
			"name" : "榆林市",
			"lon" : 109.22096029,
			"lat" : 38.198536288,
			"CapitalX" : 109.754296549,
			"CapitalY" : 38.294990848
		}, {
			"code" : 6106,
			"name" : "延安市",
			"lon" : 109.088941391,
			"lat" : 36.4067334555,
			"CapitalX" : 109.47031864,
			"CapitalY" : 36.592046095
		}, {
			"code" : 6103,
			"name" : "宝鸡市",
			"lon" : 107.1916429205,
			"lat" : 34.338884058,
			"CapitalX" : 107.140710609,
			"CapitalY" : 34.382055181
		}, {
			"code" : 6107,
			"name" : "汉中市",
			"lon" : 106.8835775485,
			"lat" : 33.0015544090001,
			"CapitalX" : 107.035512648,
			"CapitalY" : 33.076634674
		}, {
			"code" : 6109,
			"name" : "安康市",
			"lon" : 109.088117887,
			"lat" : 32.7747906875001,
			"CapitalX" : 109.0273475,
			"CapitalY" : 32.693759604
		}, {
			"code" : "商州市",
			"name" : "商州市",
			"lon" : 109.786485595,
			"lat" : 33.7741697965,
			"CapitalX" : 109.932868361,
			"CapitalY" : 33.870054815
		}, {
			"code" : 6101,
			"name" : "西安市",
			"lon" : 108.731517645,
			"lat" : 34.2254111465001,
			"CapitalX" : 108.944592015,
			"CapitalY" : 34.266781786
		}, {
			"code" : 6105,
			"name" : "渭南市",
			"lon" : 109.7515001845,
			"lat" : 35.0260838505001,
			"CapitalX" : 109.501639075,
			"CapitalY" : 34.503179439
		}, {
			"code" : 6102,
			"name" : "铜川市",
			"lon" : 109.013106646,
			"lat" : 35.1879983405001,
			"CapitalX" : 109.059109062,
			"CapitalY" : 35.07639344
		}, {
			"code" : 6104,
			"name" : "咸阳市",
			"lon" : 108.401260899,
			"lat" : 34.8432848205,
			"CapitalX" : 108.710325623,
			"CapitalY" : 34.339233484
		}
	],
	"6200" : [{
			"code" : 6202,
			"name" : "嘉峪关市",
			"lon" : 98.1543589955001,
			"lat" : 39.7631213775001,
			"CapitalX" : 98.272995845,
			"CapitalY" : 39.802800503
		}, {
			"code" : "夏河县",
			"name" : "夏河县",
			"lon" : 102.786181514,
			"lat" : 34.3269240695001,
			"CapitalX" : 102.786181514,
			"CapitalY" : 34.3269240695001
		}, {
			"code" : "成县",
			"name" : "成县",
			"lon" : 105.312274877,
			"lat" : 33.5704567100001,
			"CapitalX" : 105.730607621,
			"CapitalY" : 33.743736219
		}, {
			"code" : 6205,
			"name" : "天水市",
			"lon" : 105.6225729595,
			"lat" : 34.6233763035,
			"CapitalX" : 105.717250102,
			"CapitalY" : 34.585666374
		}, {
			"code" : "定西县",
			"name" : "定西县",
			"lon" : 104.54699857,
			"lat" : 35.089198014,
			"CapitalX" : 104.620571288,
			"CapitalY" : 35.575315998
		}, {
			"code" : "临夏市",
			"name" : "临夏市",
			"lon" : 103.2727476205,
			"lat" : 35.5917810250001,
			"CapitalX" : 103.211389682,
			"CapitalY" : 35.607512693
		}, {
			"code" : 6203,
			"name" : "金昌市",
			"lon" : 102.06839345,
			"lat" : 38.4984620450001,
			"CapitalX" : 102.16563592,
			"CapitalY" : 38.492145353
		}, {
			"code" : 6209,
			"name" : "酒泉市",
			"lon" : 96.5287299825001,
			"lat" : 40.5682611970001,
			"CapitalX" : 98.511337306,
			"CapitalY" : 39.745288779
		}, {
			"code" : 6206,
			"name" : "武威市",
			"lon" : 103.0341646635,
			"lat" : 37.9423789990001,
			"CapitalX" : 102.634908775,
			"CapitalY" : 37.927210175
		}, {
			"code" : 6201,
			"name" : "兰州市",
			"lon" : 103.6760742785,
			"lat" : 36.2740200575001,
			"CapitalX" : 103.847379844,
			"CapitalY" : 36.047269537
		}, {
			"code" : "西峰市",
			"name" : "西峰市",
			"lon" : 107.50517098,
			"lat" : 36.1840320565001,
			"CapitalX" : 107.638460719,
			"CapitalY" : 35.736769736
		}, {
			"code" : 6208,
			"name" : "平凉市",
			"lon" : 105.693833274,
			"lat" : 36.2465686255,
			"CapitalX" : 106.685981947,
			"CapitalY" : 35.536064929
		}, {
			"code" : 6207,
			"name" : "张掖市",
			"lon" : 99.7690411795001,
			"lat" : 38.7057606785,
			"CapitalX" : 100.450063779,
			"CapitalY" : 38.93343584
		}
	],
	"6300" : [{
			"code" : "格尔木市",
			"name" : "格尔木市",
			"lon" : 91.2981596065001,
			"lat" : 33.8207879030001,
			"CapitalX" : 91.2981596065001,
			"CapitalY" : 33.8207879030001
		}, {
			"code" : "治多县",
			"name" : "治多县",
			"lon" : 93.5994431925001,
			"lat" : 33.903366268,
			"CapitalX" : 93.5994431925001,
			"CapitalY" : 33.903366268
		}, {
			"code" : "玛沁县",
			"name" : "玛沁县",
			"lon" : 99.3601602660001,
			"lat" : 34.035564878,
			"CapitalX" : 100.246319713,
			"CapitalY" : 34.47422671
		}, {
			"code" : "共和县",
			"name" : "共和县",
			"lon" : 100.400990483,
			"lat" : 35.8955027315001,
			"CapitalX" : 100.616403759,
			"CapitalY" : 36.280340111
		}, {
			"code" : "同仁县",
			"name" : "同仁县",
			"lon" : 101.5622586045,
			"lat" : 35.1006070685,
			"CapitalX" : 102.00907377,
			"CapitalY" : 35.51168607
		}, {
			"code" : 6301,
			"name" : "西宁市",
			"lon" : 101.411352381,
			"lat" : 36.8482441870001,
			"CapitalX" : 101.784119567,
			"CapitalY" : 36.609113555
		}, {
			"code" : "平安县",
			"name" : "平安县",
			"lon" : 102.3224126255,
			"lat" : 36.2873450195001,
			"CapitalX" : 102.104948954,
			"CapitalY" : 36.497365996
		}, {
			"code" : "门源回族自治县",
			"name" : "门源回族自治县",
			"lon" : 100.3543122815,
			"lat" : 37.8928290090001,
			"CapitalX" : 101.615276238,
			"CapitalY" : 37.374294754
		}, {
			"code" : "乌兰县",
			"name" : "乌兰县",
			"lon" : 94.9314738455001,
			"lat" : 37.2076505050001,
			"CapitalX" : 94.9314738455001,
			"CapitalY" : 37.2076505050001
		}
	],
	"6400" : [{
			"code" : 6402,
			"name" : "石嘴山市",
			"lon" : 106.458479258,
			"lat" : 38.9111727927,
			"CapitalX" : 106.458479258,
			"CapitalY" : 38.9111727927
		}, {
			"code" : 6401,
			"name" : "银川市",
			"lon" : 106.359424915,
			"lat" : 38.1254561773,
			"CapitalX" : 106.359424915,
			"CapitalY" : 38.1254561773
		}, {
			"code" : 6403,
			"name" : "吴忠市",
			"lon" : 106.491998292,
			"lat" : 37.438428517,
			"CapitalX" : 106.491998292,
			"CapitalY" : 37.438428517
		}, {
			"code" : 6405,
			"name" : "中卫市",
			"lon" : 105.336,
			"lat" : 37.259,
			"CapitalX" : 105.336,
			"CapitalY" : 37.259
		}, {
			"code" : 6404,
			"name" : "固原市",
			"lon" : 106.182970452,
			"lat" : 35.9497997852,
			"CapitalX" : 106.182970452,
			"CapitalY" : 35.9497997852
		}
	],
	"6500" : [{
			"code" : 6502,
			"name" : "克拉玛依市",
			"lon" : 85.3272925590001,
			"lat" : 45.4068795795,
			"CapitalX" : 84.864329222,
			"CapitalY" : 45.591412465
		}, {
			"code" : "沙湾县",
			"name" : "沙湾县",
			"lon" : 85.518609154,
			"lat" : 44.3162986175001,
			"CapitalX" : 85.518609154,
			"CapitalY" : 44.3162986175001
		}, {
			"code" : 6544,
			"name" : "奎屯市",
			"lon" : 84.9947432405,
			"lat" : 44.424916716,
			"CapitalX" : 84.895907894,
			"CapitalY" : 44.423822235
		}, {
			"code" : 6503,
			"name" : "石河子市",
			"lon" : 86.0432637985001,
			"lat" : 44.2394754355001,
			"CapitalX" : 86.033443689,
			"CapitalY" : 44.293653327
		}, {
			"code" : "阿图什市",
			"name" : "阿图什市",
			"lon" : 76.1654310955001,
			"lat" : 39.5991318995001,
			"CapitalX" : 76.1678326,
			"CapitalY" : 39.715718801
		}, {
			"code" : "喀什市",
			"name" : "喀什市",
			"lon" : 77.1722789330001,
			"lat" : 37.8548594195,
			"CapitalX" : 75.985997391,
			"CapitalY" : 39.466729358
		}, {
			"code" : "阿瓦提县",
			"name" : "阿瓦提县",
			"lon" : 81.0762450825,
			"lat" : 41.066665896,
			"CapitalX" : 81.0762450825,
			"CapitalY" : 41.066665896
		}, {
			"code" : "和田市",
			"name" : "和田市",
			"lon" : 81.190807805,
			"lat" : 36.9530839230001,
			"CapitalX" : 79.927614208,
			"CapitalY" : 37.10616636
		}, {
			"code" : "库尔勒市",
			"name" : "库尔勒市",
			"lon" : 88.2155567955,
			"lat" : 39.5567810505001,
			"CapitalX" : 86.135946346,
			"CapitalY" : 41.757182716
		}, {
			"code" : "哈密市",
			"name" : "哈密市",
			"lon" : 93.7551488250001,
			"lat" : 42.9505601090001,
			"CapitalX" : 93.518646038,
			"CapitalY" : 42.819490676
		}, {
			"code" : "叶鲁番市",
			"name" : "叶鲁番市",
			"lon" : 89.6124566425001,
			"lat" : 42.3997583745001,
			"CapitalX" : 89.6124566425001,
			"CapitalY" : 42.3997583745001
		}, {
			"code" : 6501,
			"name" : "乌鲁木齐市",
			"lon" : 87.8725281375,
			"lat" : 43.5504012195,
			"CapitalX" : 87.603788671,
			"CapitalY" : 43.791168314
		}, {
			"code" : "玛纳斯县",
			"name" : "玛纳斯县",
			"lon" : 88.4502105055001,
			"lat" : 44.2703467210001,
			"CapitalX" : 88.4502105055001,
			"CapitalY" : 44.2703467210001
		}, {
			"code" : "阿勒泰市",
			"name" : "阿勒泰市",
			"lon" : 88.2928495130001,
			"lat" : 47.0554180840001,
			"CapitalX" : 88.142346113,
			"CapitalY" : 47.853592135
		}, {
			"code" : "博乐市",
			"name" : "博乐市",
			"lon" : 81.8853785550001,
			"lat" : 44.6715645960001,
			"CapitalX" : 82.072736226,
			"CapitalY" : 44.907100424
		}, {
			"code" : "伊宁市",
			"name" : "伊宁市",
			"lon" : 82.5659553365001,
			"lat" : 43.5366184600001,
			"CapitalX" : 81.319499428,
			"CapitalY" : 43.915787635
		}, {
			"code" : "塔城市",
			"name" : "塔城市",
			"lon" : 84.8268247290001,
			"lat" : 45.3726371195,
			"CapitalX" : 82.984747001,
			"CapitalY" : 46.748780402
		}
	],
	"7100" : [{
			"code" : "台北县",
			"name" : "台北县",
			"lon" : 121.6129972325,
			"lat" : 24.9931566955001,
			"CapitalX" : 121.6129972325,
			"CapitalY" : 24.9931566955001
		}, {
			"code" : "基隆市",
			"name" : "基隆市",
			"lon" : 121.6864400025,
			"lat" : 25.112409755,
			"CapitalX" : 121.738782173,
			"CapitalY" : 25.131873402
		}, {
			"code" : "台北市",
			"name" : "台北市",
			"lon" : 121.518114194,
			"lat" : 25.0626050135,
			"CapitalX" : 121.515936342,
			"CapitalY" : 25.050347287
		}, {
			"code" : "桃园县",
			"name" : "桃园县",
			"lon" : 121.1989643735,
			"lat" : 24.832921002,
			"CapitalX" : 121.1989643735,
			"CapitalY" : 24.832921002
		}, {
			"code" : "宜兰县",
			"name" : "宜兰县",
			"lon" : 121.5918759825,
			"lat" : 24.6244060445,
			"CapitalX" : 121.5918759825,
			"CapitalY" : 24.6244060445
		}, {
			"code" : "新竹县",
			"name" : "新竹县",
			"lon" : 121.1041778735,
			"lat" : 24.6782476665001,
			"CapitalX" : 121.1041778735,
			"CapitalY" : 24.6782476665001
		}, {
			"code" : "苗栗县",
			"name" : "苗栗县",
			"lon" : 120.926491199,
			"lat" : 24.5103426030001,
			"CapitalX" : 120.926491199,
			"CapitalY" : 24.5103426030001
		}, {
			"code" : "台中县",
			"name" : "台中县",
			"lon" : 120.9546309475,
			"lat" : 24.2141377835001,
			"CapitalX" : 120.9546309475,
			"CapitalY" : 24.2141377835001
		}, {
			"code" : "南投县",
			"name" : "南投县",
			"lon" : 120.951836905,
			"lat" : 23.8502965165001,
			"CapitalX" : 120.951836905,
			"CapitalY" : 23.8502965165001
		}, {
			"code" : "台中市",
			"name" : "台中市",
			"lon" : 120.6603446305,
			"lat" : 24.1760195945,
			"CapitalX" : 120.671841205,
			"CapitalY" : 24.142240266
		}, {
			"code" : "彰化县",
			"name" : "彰化县",
			"lon" : 120.4596319555,
			"lat" : 23.974909638,
			"CapitalX" : 120.4596319555,
			"CapitalY" : 23.974909638
		}, {
			"code" : "云林县",
			"name" : "云林县",
			"lon" : 120.4271013265,
			"lat" : 23.65329504,
			"CapitalX" : 120.4271013265,
			"CapitalY" : 23.65329504
		}, {
			"code" : "嘉义县",
			"name" : "嘉义县",
			"lon" : 120.5293808035,
			"lat" : 23.439682356,
			"CapitalX" : 120.5293808035,
			"CapitalY" : 23.439682356
		}, {
			"code" : "台东县",
			"name" : "台东县",
			"lon" : 121.109115571,
			"lat" : 22.8630391180001,
			"CapitalX" : 121.109115571,
			"CapitalY" : 22.8630391180001
		}, {
			"code" : "台南县",
			"name" : "台南县",
			"lon" : 120.3439043305,
			"lat" : 23.1701601105,
			"CapitalX" : 120.3439043305,
			"CapitalY" : 23.1701601105
		}, {
			"code" : "台南市",
			"name" : "台南市",
			"lon" : 120.1465354175,
			"lat" : 23.0048964140001,
			"CapitalX" : 120.200884387,
			"CapitalY" : 23.003982395
		}, {
			"code" : "屏东县",
			"name" : "屏东县",
			"lon" : 120.638419647,
			"lat" : 22.3978075445,
			"CapitalX" : 120.638419647,
			"CapitalY" : 22.3978075445
		}, {
			"code" : "高雄市",
			"name" : "高雄市",
			"lon" : 120.311103528,
			"lat" : 22.645626429,
			"CapitalX" : 120.303765169,
			"CapitalY" : 22.633586295
		}, {
			"code" : "花莲县",
			"name" : "花莲县",
			"lon" : 121.37159,
			"lat" : 23.753136,
			"CapitalX" : "0",
			"CapitalY" : "0"
		}
	],
	"8100" : [{
			"code" : "香港",
			"name" : "香港",
			"lon" : 114.109233174,
			"lat" : 22.362965733,
			"CapitalX" : 114.162453346,
			"CapitalY" : 22.276923726
		}
	],
	"8200" : [{
			"code" : "澳门特别行政区",
			"name" : "澳门特别行政区",
			"lon" : 113.207470591,
			"lat" : 22.237644298,
			"CapitalX" : 113.552077838,
			"CapitalY" : 22.199447376
		}
	]
}
